[
    {
        "name": "Canggu",
        "country": "Indonesia",
        "nomad_score": 3.94,
        "country_flag_emoji": "\ud83c\uddee\ud83c\udde9",
        "rating": 3.39,
        "latitude": "-8.6531344",
        "longitude": "115.1317479",
        "slug": "canggu",
        "short_slug": "canggu",
        "long_slug": null,
        "population": "30000",
        "user_count_have_been": null
    },
    {
        "name": "Kuala Lumpur",
        "country": "Malaysia",
        "nomad_score": 3.7,
        "country_flag_emoji": "\ud83c\uddf2\ud83c\uddfe",
        "rating": 3.27,
        "latitude": "3.139003",
        "longitude": "101.686855",
        "slug": "kuala-lumpur",
        "short_slug": "kuala-lumpur",
        "long_slug": null,
        "population": "1768000",
        "user_count_have_been": null
    },
    {
        "name": "Tokyo",
        "country": "Japan",
        "nomad_score": 3.51,
        "country_flag_emoji": "\ud83c\uddef\ud83c\uddf5",
        "rating": 4.1,
        "latitude": "35.6894875",
        "longitude": "139.6917064",
        "slug": "tokyo",
        "short_slug": "tokyo",
        "long_slug": null,
        "population": "13515271",
        "user_count_have_been": null
    },
    {
        "name": "Seoul",
        "country": "South Korea",
        "nomad_score": 3.5,
        "country_flag_emoji": "\ud83c\uddf0\ud83c\uddf7",
        "rating": 4.2,
        "latitude": "37.5509821",
        "longitude": "126.9903435",
        "slug": "seoul",
        "short_slug": "seoul",
        "long_slug": null,
        "population": "9806000",
        "user_count_have_been": null
    },
    {
        "name": "Lisbon",
        "country": "Portugal",
        "nomad_score": 3.45,
        "country_flag_emoji": "\ud83c\uddf5\ud83c\uddf9",
        "rating": 3.57,
        "latitude": "38.7222524",
        "longitude": "-9.1393366",
        "slug": "lisbon",
        "short_slug": "lisbon",
        "long_slug": null,
        "population": "545200",
        "user_count_have_been": null
    },
    {
        "name": "Mexico City",
        "country": "Mexico",
        "nomad_score": 3.21,
        "country_flag_emoji": "\ud83c\uddf2\ud83c\uddfd",
        "rating": 3.51,
        "latitude": "19.4326077",
        "longitude": "-99.133208",
        "slug": "mexico-city",
        "short_slug": "mexico-city",
        "long_slug": null,
        "population": "8918653",
        "user_count_have_been": null
    },
    {
        "name": "Taipei",
        "country": "Taiwan",
        "nomad_score": 3.14,
        "country_flag_emoji": "\ud83c\uddf9\ud83c\uddfc",
        "rating": 4.1,
        "latitude": "25.042405",
        "longitude": "121.532772",
        "slug": "taipei",
        "short_slug": "taipei",
        "long_slug": null,
        "population": "2704810",
        "user_count_have_been": null
    },
    {
        "name": "Dubai",
        "country": "United Arab Emirates",
        "nomad_score": 3.13,
        "country_flag_emoji": "\ud83c\udde6\ud83c\uddea",
        "rating": 2.93,
        "latitude": "25.2048",
        "longitude": "55.2708",
        "slug": "dubai",
        "short_slug": "dubai",
        "long_slug": null,
        "population": "2109274",
        "user_count_have_been": null
    },
    {
        "name": "London",
        "country": "United Kingdom",
        "nomad_score": 3.02,
        "country_flag_emoji": "\ud83c\uddec\ud83c\udde7",
        "rating": 3.99,
        "latitude": "51.5073509",
        "longitude": "-0.1277583",
        "slug": "london",
        "short_slug": "london",
        "long_slug": null,
        "population": "8825001",
        "user_count_have_been": null
    },
    {
        "name": "Singapore",
        "country": "Singapore",
        "nomad_score": 3.01,
        "country_flag_emoji": "\ud83c\uddf8\ud83c\uddec",
        "rating": 4.04,
        "latitude": "1.2800945",
        "longitude": "103.8509491",
        "slug": "singapore",
        "short_slug": "singapore",
        "long_slug": null,
        "population": "5607283",
        "user_count_have_been": null
    },
    {
        "name": "Prague",
        "country": "Czechia",
        "nomad_score": 2.95,
        "country_flag_emoji": "\ud83c\udde8\ud83c\uddff",
        "rating": 4.22,
        "latitude": "50.0755381",
        "longitude": "14.4378005",
        "slug": "prague",
        "short_slug": "prague",
        "long_slug": null,
        "population": "1280508",
        "user_count_have_been": null
    },
    {
        "name": "Barcelona",
        "country": "Spain",
        "nomad_score": 2.88,
        "country_flag_emoji": "\ud83c\uddea\ud83c\uddf8",
        "rating": 3.57,
        "latitude": "41.3850639",
        "longitude": "2.1734035",
        "slug": "barcelona",
        "short_slug": "barcelona",
        "long_slug": null,
        "population": "1614777",
        "user_count_have_been": null
    },
    {
        "name": "Chicago",
        "country": "United States",
        "nomad_score": 2.82,
        "country_flag_emoji": "\ud83c\uddfa\ud83c\uddf8",
        "rating": 3.85,
        "latitude": "41.8781136",
        "longitude": "-87.6297982",
        "slug": "chicago",
        "short_slug": "chicago",
        "long_slug": null,
        "population": "2705994",
        "user_count_have_been": null
    },
    {
        "name": "Amsterdam",
        "country": "Netherlands",
        "nomad_score": 2.74,
        "country_flag_emoji": "\ud83c\uddf3\ud83c\uddf1",
        "rating": 4.21,
        "latitude": "52.376884",
        "longitude": "4.907764",
        "slug": "amsterdam",
        "short_slug": "amsterdam",
        "long_slug": null,
        "population": "821752",
        "user_count_have_been": null
    },
    {
        "name": "S\u00e3o Paulo",
        "country": "Brazil",
        "nomad_score": 2.72,
        "country_flag_emoji": "\ud83c\udde7\ud83c\uddf7",
        "rating": 3.71,
        "latitude": "-23.5505199",
        "longitude": "-46.6333094",
        "slug": "sao-paulo",
        "short_slug": "sao-paulo",
        "long_slug": null,
        "population": "12252023",
        "user_count_have_been": null
    },
    {
        "name": "Toronto",
        "country": "Canada",
        "nomad_score": 2.67,
        "country_flag_emoji": "\ud83c\udde8\ud83c\udde6",
        "rating": 3.81,
        "latitude": "43.653226",
        "longitude": "-79.3831843",
        "slug": "toronto",
        "short_slug": "toronto",
        "long_slug": null,
        "population": "2731571",
        "user_count_have_been": null
    },
    {
        "name": "Los Angeles",
        "country": "United States",
        "nomad_score": 2.59,
        "country_flag_emoji": "\ud83c\uddfa\ud83c\uddf8",
        "rating": 3.76,
        "latitude": "34.0522342",
        "longitude": "-118.2436849",
        "slug": "los-angeles",
        "short_slug": "los-angeles",
        "long_slug": null,
        "population": "3990456",
        "user_count_have_been": null
    },
    {
        "name": "San Francisco",
        "country": "United States",
        "nomad_score": 2.59,
        "country_flag_emoji": "\ud83c\uddfa\ud83c\uddf8",
        "rating": 3.39,
        "latitude": "37.7749295",
        "longitude": "-122.4194155",
        "slug": "san-francisco",
        "short_slug": "san-francisco",
        "long_slug": null,
        "population": "870887",
        "user_count_have_been": null
    },
    {
        "name": "Hong Kong",
        "country": "Hong Kong",
        "nomad_score": 2.58,
        "country_flag_emoji": "\ud83c\udded\ud83c\uddf0",
        "rating": 3.95,
        "latitude": "22.281012",
        "longitude": "114.174512",
        "slug": "hong-kong",
        "short_slug": "hong-kong",
        "long_slug": null,
        "population": "7187500",
        "user_count_have_been": null
    },
    {
        "name": "Shanghai",
        "country": "China",
        "nomad_score": 2.56,
        "country_flag_emoji": "\ud83c\udde8\ud83c\uddf3",
        "rating": 3.58,
        "latitude": "31.230416",
        "longitude": "121.473701",
        "slug": "shanghai",
        "short_slug": "shanghai",
        "long_slug": null,
        "population": "24183000",
        "user_count_have_been": null
    },
    {
        "name": "Paris",
        "country": "France",
        "nomad_score": 2.43,
        "country_flag_emoji": "\ud83c\uddeb\ud83c\uddf7",
        "rating": 3.62,
        "latitude": "48.856614",
        "longitude": "2.3522219",
        "slug": "paris",
        "short_slug": "paris",
        "long_slug": null,
        "population": "2148271",
        "user_count_have_been": null
    },
    {
        "name": "Rome",
        "country": "Italy",
        "nomad_score": 2.4,
        "country_flag_emoji": "\ud83c\uddee\ud83c\uddf9",
        "rating": 3.62,
        "latitude": "41.8723889",
        "longitude": "12.4801802",
        "slug": "rome",
        "short_slug": "rome",
        "long_slug": null,
        "population": "2752636",
        "user_count_have_been": null
    },
    {
        "name": "Moscow",
        "country": "Russia",
        "nomad_score": 0.5,
        "country_flag_emoji": "\ud83c\uddf7\ud83c\uddfa",
        "rating": 0.7999999999999998,
        "latitude": "55.755826",
        "longitude": "37.6173",
        "slug": "moscow",
        "short_slug": "moscow",
        "long_slug": null,
        "population": "13200000",
        "user_count_have_been": null
    }
]
